City_ID,City,Country,Lat,Lng,Max Temp,Humidity,Cloudiness,Wind Speed,Current Description
0,Yellowknife,CA,62.456,-114.3525,42.42,68,20,4.61,few clouds
1,Saint-Paul,RE,-21.0096,55.2707,77.09,67,13,4.07,few clouds
2,Bluff,NZ,-46.6,168.3333,52.81,79,100,25.46,overcast clouds
3,Albany,US,42.6001,-73.9662,62.53,95,100,1.95,moderate rain
4,Fare,PF,-16.7,-151.0167,78.57,73,9,10.33,clear sky
5,Port Augusta,AU,-32.5,137.7667,70.7,25,30,21.5,scattered clouds
6,Salalah,OM,17.0151,54.0924,80.69,89,75,5.75,broken clouds
7,Juneau,US,58.3019,-134.4197,41.22,96,90,10.36,light snow
8,Nanortalik,GL,60.1432,-45.2371,37.98,85,1,2.75,clear sky
9,Thompson,CA,55.7435,-97.8558,44.76,87,1,0.0,smoke
10,Rikitea,PF,-23.1203,-134.9692,73.18,71,86,17.85,light rain
11,Marawi,PH,7.9986,124.2928,74.64,87,100,6.31,overcast clouds
12,Pimentel,PE,-6.8367,-79.9342,62.31,88,84,12.95,broken clouds
13,Porto Novo,BJ,6.4965,2.6036,78.62,92,100,3.38,overcast clouds
14,Victoria,HK,22.2855,114.1577,92.97,79,28,3.0,scattered clouds
15,Silver City,US,32.7701,-108.2803,62.67,58,1,3.0,clear sky
16,Mahebourg,MU,-20.4081,57.7,75.25,88,40,3.44,light rain
17,Hermanus,ZA,-34.4187,19.2345,53.91,79,9,10.27,clear sky
18,Korsakov,RU,46.6328,142.7813,53.44,69,98,5.53,moderate rain
19,Surt,LY,31.2089,16.5887,73.47,57,0,9.28,clear sky
20,Busselton,AU,-33.65,115.3333,62.04,73,82,19.1,broken clouds
21,Ribeira Grande,PT,38.5167,-28.7,71.15,88,40,6.78,scattered clouds
22,Asau,RO,46.4333,26.4,45.75,86,17,2.64,few clouds
23,Arraial Do Cabo,BR,-22.9661,-42.0278,70.5,97,100,4.97,overcast clouds
24,Vilhena,BR,-12.7406,-60.1458,72.45,74,52,1.88,broken clouds
25,Vaini,TO,-21.2,-175.2,75.36,88,75,13.8,broken clouds
26,Kaitangata,NZ,-46.2817,169.8464,50.94,79,100,17.65,overcast clouds
27,Mataura,NZ,-46.1927,168.8643,52.48,83,100,11.79,overcast clouds
28,Piacabucu,BR,-10.4056,-36.4344,74.48,85,36,9.37,scattered clouds
29,Upernavik,GL,72.7868,-56.1549,29.82,86,92,3.65,overcast clouds
30,Shintomi,JP,32.0785,131.4723,81.72,57,18,7.87,few clouds
31,Cesis,LV,57.3119,25.2746,46.72,74,38,10.6,scattered clouds
32,Wonthaggi,AU,-38.6044,145.5913,62.94,58,71,18.19,light rain
33,Butaritari,KI,3.0707,172.7902,82.89,69,7,16.26,clear sky
34,Meiningen,DE,50.5679,10.4152,57.61,88,100,1.01,light rain
35,East London,ZA,-33.0153,27.9116,54.54,87,20,3.44,light rain
36,Ewa Beach,US,21.3156,-158.0072,82.35,65,75,17.0,broken clouds
37,Mahanoro,MG,-19.9,48.8,74.73,74,42,8.28,scattered clouds
38,Whitehorse,CA,60.7161,-135.0538,32.81,91,90,5.01,light shower snow
39,Faanui,PF,-16.4833,-151.75,78.67,72,13,10.67,few clouds
40,Fukue,JP,32.6881,128.8419,80.96,65,40,14.97,scattered clouds
41,Barrow,US,71.2906,-156.7887,28.42,86,75,9.22,broken clouds
42,Birao,CF,10.2849,22.7882,73.02,85,81,3.22,broken clouds
43,Dawei,MM,14.0833,98.2,84.29,80,99,4.43,overcast clouds
44,Qaanaaq,GL,77.484,-69.3632,25.36,92,98,6.51,overcast clouds
45,Tirumullaivasal,IN,11.2333,79.8333,88.03,63,77,7.7,moderate rain
46,Omaruru,NA,-21.4333,15.9333,58.1,30,0,4.18,clear sky
47,Tuatapere,NZ,-46.1333,167.6833,52.83,81,99,6.64,overcast clouds
48,Dali,CN,25.7,100.1833,72.16,65,69,3.33,broken clouds
49,Sao Filipe,CV,14.8961,-24.4956,79.68,80,17,2.73,few clouds
50,Ushuaia,AR,-54.8,-68.3,37.06,81,75,18.41,light intensity drizzle
51,Sobolevo,RU,54.4299,31.8996,43.59,85,99,7.36,overcast clouds
52,Hobart,AU,-42.8794,147.3294,61.11,90,75,10.36,light intensity shower rain
53,Port Elizabeth,ZA,-33.918,25.5701,50.29,81,0,8.05,clear sky
54,Jamestown,US,42.097,-79.2353,67.32,98,90,3.0,overcast clouds
55,Ambovombe,MG,-25.1667,46.0833,76.84,59,5,4.92,clear sky
56,New Norfolk,AU,-42.7826,147.0587,62.65,78,86,4.34,light rain
57,Georgetown,MY,5.4112,100.3354,89.55,67,20,7.0,few clouds
58,Mezen,RU,65.8522,44.24,41.94,91,12,8.48,few clouds
59,Airai,TL,-8.9266,125.4092,79.16,40,53,3.06,broken clouds
60,Tasiilaq,GL,65.6145,-37.6368,30.36,58,47,4.43,scattered clouds
61,Talnakh,RU,69.4865,88.3972,24.75,94,100,6.93,overcast clouds
62,Port Lincoln,AU,-34.7333,135.8667,57.4,70,83,25.46,broken clouds
63,Akcaabat,TR,41.0212,39.5715,62.47,72,75,4.61,broken clouds
64,Beringovskiy,RU,63.05,179.3167,39.2,98,100,20.67,light rain
65,Atuona,PF,-9.8,-139.0333,77.86,70,24,18.12,few clouds
66,Wahiawa,US,21.5028,-158.0236,79.12,77,90,3.44,overcast clouds
67,Merauke,ID,-8.4667,140.3333,83.14,71,12,11.68,few clouds
68,Ponta Do Sol,PT,32.6667,-17.1,72.01,78,100,6.46,overcast clouds
69,Saint-Philippe,RE,-21.3585,55.7679,76.55,79,46,12.33,scattered clouds
70,Pandamatenga,BW,-18.5278,25.627,70.0,38,52,4.85,broken clouds
71,Hualmay,PE,-11.0964,-77.6139,61.3,85,55,8.3,broken clouds
72,Nikolskoye,RU,59.7035,30.7861,43.88,93,0,7.99,clear sky
73,Pevek,RU,69.7008,170.3133,26.58,93,99,1.16,overcast clouds
74,Saskylakh,RU,71.9167,114.0833,23.14,90,100,15.32,overcast clouds
75,Bredasdorp,ZA,-34.5322,20.0403,45.72,87,63,2.3,broken clouds
76,Laerdalsoyri,NO,61.098,7.4816,55.72,62,75,10.36,broken clouds
77,Kapaa,US,22.0752,-159.319,75.18,84,90,6.91,light rain
78,San Pedro,PH,14.35,121.0167,87.31,73,75,3.44,broken clouds
79,San Jeronimo,PE,-11.9472,-75.2829,51.76,71,42,3.49,scattered clouds
80,Terrasini,IT,38.146,13.0844,71.08,68,0,5.75,clear sky
81,Dingle,PH,10.9995,122.6711,76.19,94,100,6.98,heavy intensity rain
82,Yatsushiro,JP,32.5,130.6,84.6,41,27,4.07,scattered clouds
83,Faya,SA,18.3851,42.4509,62.71,42,8,3.8,clear sky
84,Vung Tau,VN,10.346,107.0843,84.47,70,92,3.27,overcast clouds
85,Pangnirtung,CA,66.1451,-65.7125,36.84,80,94,0.67,overcast clouds
86,Ponta Delgada,PT,37.7333,-25.6667,73.51,94,75,3.44,broken clouds
87,Saint-Francois,FR,46.4154,3.9054,51.48,96,75,4.61,broken clouds
88,Tiksi,RU,71.6872,128.8694,26.31,84,100,22.84,overcast clouds
89,Tucuman,AR,-26.8241,-65.2226,50.0,81,77,8.05,broken clouds
90,Ostrovnoy,RU,68.0531,39.5131,46.47,76,100,28.97,overcast clouds
91,Watsa,CD,3.0372,29.5355,64.6,95,22,1.3,few clouds
92,Kupino,RU,54.3663,77.2981,38.3,77,100,7.09,overcast clouds
93,Belyy Yar,RU,53.6039,91.3903,39.09,60,0,2.24,clear sky
94,Magomeni,TZ,-6.8,39.25,77.52,67,71,5.14,broken clouds
95,Khatanga,RU,71.9667,102.5,25.09,94,100,17.96,light snow
96,Kavaratti,IN,10.5669,72.642,82.06,78,95,9.93,moderate rain
97,Chicama,PE,-7.8447,-79.1469,59.54,86,66,6.11,broken clouds
98,Krasnogorskoye,RU,52.2953,86.1979,44.31,57,100,3.11,overcast clouds
99,Sorland,NO,67.667,12.6934,60.87,87,100,17.52,overcast clouds
100,Lompoc,US,34.6391,-120.4579,70.52,82,1,0.0,clear sky
101,Omboue,GA,-1.5746,9.2618,75.76,85,100,5.61,overcast clouds
102,Puerto Ayora,EC,-0.7393,-90.3518,69.22,84,73,11.52,broken clouds
103,Luderitz,NA,-26.6481,15.1594,58.64,48,57,11.95,broken clouds
104,Lata,PT,40.1629,-8.3327,52.07,80,100,0.89,overcast clouds
105,Minas,UY,-34.3759,-55.2377,54.52,80,27,2.93,scattered clouds
106,Phan Thiet,VN,10.9333,108.1,85.06,73,98,5.55,moderate rain
107,Makakilo City,US,21.3469,-158.0858,80.92,66,75,10.36,broken clouds
108,Muana,BR,-1.5283,-49.2167,75.06,92,60,5.26,broken clouds
109,Alyangula,AU,-13.8483,136.4192,96.67,32,32,11.5,scattered clouds
110,Wanning,CN,18.8003,110.3967,83.66,80,57,11.36,broken clouds
111,Karla,EE,59.3723,24.9275,47.91,85,0,12.66,clear sky
112,Pareora,NZ,-44.4871,171.2132,51.19,97,100,14.36,overcast clouds
113,Anadyr,RU,64.75,177.4833,37.9,93,75,24.0,moderate rain
114,Adrar,MR,20.5022,-10.0711,83.21,10,9,11.18,clear sky
115,Severo-Kurilsk,RU,50.6789,156.125,47.53,79,49,22.39,scattered clouds
116,Cap Malheureux,MU,-19.9842,57.6142,75.47,68,84,8.99,light rain
117,Puerto Escondido,MX,15.85,-97.0667,80.1,87,92,6.4,overcast clouds
118,Angoche,MZ,-16.2325,39.9086,78.31,68,0,11.18,clear sky
119,Port Alfred,ZA,-33.5906,26.891,55.72,72,4,5.19,light rain
120,Buraydah,SA,26.326,43.975,73.85,12,7,3.89,clear sky
121,Chamlykskaya,RU,44.7158,40.8786,48.2,87,100,14.63,overcast clouds
122,Saint-Georges,GD,12.0564,-61.7485,83.88,74,20,24.16,few clouds
123,Hofn,IS,64.2539,-15.2082,44.83,74,100,18.92,overcast clouds
124,Avera,US,33.194,-82.5271,73.27,79,95,3.69,overcast clouds
125,Camacha,PT,33.0833,-16.3333,68.54,88,40,8.05,light intensity drizzle
126,Constitucion,CL,-35.3333,-72.4167,48.24,72,0,6.64,clear sky
127,Narsaq,GL,60.9167,-46.05,39.42,63,7,2.84,clear sky
128,Sept-Iles,CA,50.2001,-66.3821,39.06,89,1,3.44,clear sky
129,Chapais,CA,49.7834,-74.8492,38.98,90,0,4.83,clear sky
130,Filadelfia,US,39.9523,-75.1638,72.99,86,90,1.01,overcast clouds
131,Cherskiy,RU,68.75,161.3,18.84,98,90,4.52,overcast clouds
132,Kendari,ID,-3.945,122.4989,89.26,52,93,4.07,overcast clouds
133,Komsomolskiy,UZ,40.4272,71.7189,56.62,50,75,4.61,broken clouds
134,Murray Bridge,AU,-35.1167,139.2667,59.13,63,44,25.34,scattered clouds
135,Mugur-Aksy,RU,50.35,90.5,26.76,51,28,5.66,scattered clouds
136,La Ronge,CA,55.1001,-105.2842,50.22,61,75,3.44,broken clouds
137,Louis Trichardt,ZA,-23.0439,29.9032,55.24,95,100,8.32,overcast clouds
138,Fortuna,US,40.5982,-124.1573,59.41,73,90,0.0,overcast clouds
139,Dargaville,NZ,-35.9333,173.8833,64.11,82,15,8.39,few clouds
140,Coari,BR,-4.085,-63.1414,76.33,88,38,0.92,scattered clouds
141,Buchanan,LR,5.8808,-10.0467,75.61,93,52,3.49,light rain
142,Kirkwall,GB,58.9848,-2.9587,51.96,88,20,13.8,few clouds
143,Taksimo,RU,56.3444,114.8794,41.86,50,56,1.88,broken clouds
144,Lavras Da Mangabeira,BR,-6.7533,-38.9644,80.74,58,1,3.38,clear sky
145,Umm Lajj,SA,25.0213,37.2685,81.09,63,58,13.04,broken clouds
146,Punta Arenas,CL,-53.15,-70.9167,41.11,70,20,28.77,few clouds
147,Nome,US,64.5011,-165.4064,33.87,61,90,4.61,overcast clouds
148,Hasaki,JP,35.7333,140.8333,82.8,72,2,14.5,clear sky
149,Bethel,US,41.3712,-73.414,68.81,91,90,3.44,light rain
150,Rabaul,PG,-4.1967,152.1721,84.97,68,100,10.13,overcast clouds
151,Bengkulu,ID,-3.8004,102.2655,82.96,70,72,6.89,broken clouds
152,Inhambane,MZ,-23.865,35.3833,73.38,94,75,9.22,light rain
153,Kathmandu,NP,27.7167,85.3167,77.22,69,40,5.75,scattered clouds
154,Sistranda,NO,63.7256,8.834,56.89,72,35,16.62,scattered clouds
155,Norman Wells,CA,65.282,-126.8329,33.84,93,90,23.02,light snow
156,Andenes,NO,69.3143,16.1194,55.38,67,20,11.5,few clouds
157,Henties Bay,NA,-22.116,14.2845,52.86,91,1,3.58,clear sky
158,San Cristobal,VE,7.7669,-72.225,73.58,98,97,2.44,overcast clouds
159,Beyneu,KZ,45.3167,55.2,55.2,34,67,12.59,broken clouds
160,Lebu,CL,-37.6167,-73.65,47.5,80,0,19.71,clear sky
161,Hithadhoo,MV,-0.6,73.0833,83.7,75,55,16.49,broken clouds
162,Provideniya,RU,64.3833,-173.3,33.91,69,90,6.71,overcast clouds
163,Ancud,CL,-41.8697,-73.8203,42.33,79,58,2.84,broken clouds
164,Mar Del Plata,AR,-38.0023,-57.5575,45.12,67,0,4.0,clear sky
165,Richards Bay,ZA,-28.783,32.0377,58.95,81,100,4.83,light rain
166,Oistins,BB,13.0667,-59.5333,82.49,69,40,23.02,scattered clouds
167,Manta,EC,-0.95,-80.7333,69.58,88,75,14.97,broken clouds
168,Avarua,CK,-21.2078,-159.775,75.25,69,75,4.61,broken clouds
169,Vieste,IT,41.8825,16.175,59.5,73,0,12.01,clear sky
170,Amahai,ID,-3.3333,128.9167,82.83,67,36,6.02,scattered clouds
171,Tanabe,JP,33.7333,135.3667,81.61,69,20,14.97,few clouds
172,Tilichiki,RU,60.4667,166.1,37.63,95,100,19.98,light rain
173,Poum,NC,-20.2333,164.0167,75.65,82,17,11.72,few clouds
174,Swinford,IE,53.95,-8.95,49.33,94,96,7.05,overcast clouds
175,Moshupa,BW,-24.7782,25.4155,46.81,20,0,3.49,clear sky
176,Cape Town,ZA,-33.9258,18.4232,55.11,64,20,21.85,few clouds
177,Montreux,CH,46.433,6.9114,60.17,90,100,8.99,overcast clouds
178,Sakaraha,MG,-22.9,44.5333,72.99,63,58,2.37,broken clouds
179,Kanungu,UG,-0.9575,29.7897,63.82,82,93,1.52,overcast clouds
180,Kinsale,IE,51.7075,-8.5306,45.77,93,20,9.22,few clouds
181,Mildura,AU,-34.2,142.15,66.16,32,75,21.85,broken clouds
182,Oranjemund,NA,-28.55,16.4333,53.94,70,100,10.83,overcast clouds
183,Flinders,AU,-34.5833,150.8552,79.05,41,0,12.5,clear sky
184,Wenzhou,CN,27.9994,120.6668,84.88,68,47,6.64,scattered clouds
185,Chabahar,IR,25.2919,60.643,83.08,70,74,2.48,broken clouds
186,Ilulissat,GL,69.2167,-51.1,28.42,69,20,3.44,few clouds
187,Tuktoyaktuk,CA,69.4541,-133.0374,33.8,93,90,13.8,overcast clouds
188,Kothapet,IN,19.3333,79.4833,86.11,73,37,3.09,scattered clouds
189,Shimoda,JP,34.6667,138.95,83.1,63,1,7.56,clear sky
190,Svetlogorsk,BY,52.6333,29.7333,41.88,75,46,7.52,scattered clouds
191,Bathsheba,BB,13.2167,-59.5167,83.01,69,40,23.02,scattered clouds
192,Rocha,UY,-34.4833,-54.3333,43.56,82,27,4.52,scattered clouds
193,Castro,BR,-24.7911,-50.0119,61.56,97,100,3.18,overcast clouds
194,Wexford,IE,52.3342,-6.4575,48.58,83,86,12.66,overcast clouds
195,Pangai,TO,-19.8,-174.35,77.11,88,90,24.16,light intensity shower rain
196,Bariadi,TZ,-2.8,33.9833,71.92,62,100,2.06,overcast clouds
197,Hagere Selam,ET,6.4833,38.5167,53.17,90,94,1.39,light rain
198,Palmeira,BR,-25.4294,-50.0064,58.62,98,100,3.89,overcast clouds
199,Viseu,PT,40.661,-7.9097,48.88,81,100,0.25,overcast clouds
200,Aksarka,RU,66.5606,67.7975,33.8,70,100,12.62,overcast clouds
201,San Patricio,US,28.017,-97.5169,80.83,81,98,2.57,overcast clouds
202,Pisco,PE,-13.7,-76.2167,60.85,82,20,11.5,few clouds
203,Yulara,AU,-25.2406,130.9889,80.44,14,0,10.36,clear sky
204,Carnarvon,AU,-24.8667,113.6333,69.87,56,0,23.02,clear sky
205,Korla,CN,41.7597,86.1469,56.46,27,84,3.42,broken clouds
206,Codrington,AU,-38.2667,141.9667,49.68,87,99,17.76,overcast clouds
207,Rawson,AR,-43.3002,-65.1023,53.22,43,9,21.16,clear sky
208,Vila,PT,42.0304,-8.1588,46.33,94,100,3.6,overcast clouds
209,Northam,GB,51.0333,-4.2167,53.1,95,84,11.88,broken clouds
210,Port Macquarie,AU,-31.4333,152.9167,90.9,37,0,6.49,clear sky
211,Kozova,UA,49.4354,25.1509,49.03,64,70,10.16,broken clouds
212,Chengde,CN,40.9725,117.9361,60.22,53,100,1.72,overcast clouds
213,Kodiak,US,57.79,-152.4072,38.07,66,0,7.92,clear sky
214,Turukhansk,RU,65.8167,87.9833,32.45,82,96,4.99,overcast clouds
215,Mayumba,GA,-3.432,10.6554,75.15,87,100,6.55,overcast clouds
216,Rio Grande,BR,-32.035,-52.0986,53.94,74,82,13.69,broken clouds
217,Palana,RU,59.1167,159.9667,37.4,95,100,31.5,light rain
218,Cabo San Lucas,MX,22.8909,-109.9124,83.52,78,89,4.72,overcast clouds
219,Coyotepec,MX,19.775,-99.2072,60.31,87,94,4.38,overcast clouds
220,Klaksvik,FO,62.2266,-6.589,47.32,85,54,11.39,broken clouds
221,Smithers,CA,54.7804,-127.1743,37.72,75,90,4.61,overcast clouds
222,Cayenne,GF,4.9333,-52.3333,82.09,77,22,1.99,few clouds
223,Cockburn Town,TC,21.4612,-71.1419,81.1,67,100,17.05,overcast clouds
224,Krasnoselkup,RU,65.7,82.4667,28.36,78,87,6.15,overcast clouds
225,Katsuura,JP,35.1333,140.3,80.71,69,1,10.45,clear sky
226,Paamiut,GL,61.994,-49.6678,37.63,60,38,8.95,scattered clouds
227,Talcahuano,CL,-36.7167,-73.1167,46.08,87,0,6.91,clear sky
228,Tygda,RU,53.1167,126.3333,45.46,40,1,7.18,clear sky
229,Baruun-Urt,MN,46.6806,113.2792,47.48,41,13,9.19,few clouds
230,Yarim,YE,14.298,44.3779,61.0,55,87,0.96,overcast clouds
231,Taltal,CL,-25.4,-70.4833,58.66,70,0,2.66,clear sky
232,Champasak,LA,14.75,106.0,86.88,50,85,3.51,overcast clouds
233,Guerrero Negro,MX,27.9769,-114.0611,74.26,67,100,10.09,overcast clouds
234,Amga,RU,60.8953,131.9608,40.57,47,9,8.48,clear sky
235,Homer,US,59.6425,-151.5483,42.8,61,1,0.0,clear sky
236,Miyang,CN,24.4042,103.4428,73.78,72,95,6.38,overcast clouds
237,Sinnamary,GF,5.3833,-52.95,78.67,80,9,11.63,clear sky
238,Toucheng,TW,24.8592,121.8233,92.55,64,34,12.95,scattered clouds
239,Sayyan,YE,15.1718,44.3244,62.8,56,91,2.89,overcast clouds
240,Burgersdorp,ZA,-30.9977,26.3286,42.93,65,0,5.59,clear sky
241,Caravelas,BR,-17.7125,-39.2481,75.15,85,23,12.21,few clouds
242,Skibbereen,IE,51.55,-9.2667,46.2,80,51,12.82,broken clouds
243,Aksu,CN,41.1231,80.2644,51.93,63,100,5.46,overcast clouds
244,Havre-Saint-Pierre,CA,50.2334,-63.5986,48.2,87,40,4.61,scattered clouds
245,Seoul,KR,37.5683,126.9778,80.08,78,90,17.27,light rain
246,Tigil,RU,57.8,158.6667,39.7,96,100,15.73,light rain
247,Fez,MA,34.0372,-4.9998,62.85,77,75,5.75,broken clouds
248,Birin,NP,26.8865,88.0718,68.11,81,73,4.18,broken clouds
249,Ereymentau,KZ,51.6199,73.1033,33.12,81,100,18.37,overcast clouds
250,Rio Gallegos,AR,-51.6226,-69.2181,41.05,52,0,19.57,clear sky
251,Cape Girardeau,US,37.3834,-89.7168,67.48,90,18,6.06,few clouds
252,Mount Gambier,AU,-37.8333,140.7667,51.71,87,90,24.16,light intensity shower rain
253,Camabatela,AO,-8.1881,15.375,61.23,93,89,3.56,overcast clouds
254,Tazovskiy,RU,67.4667,78.7,34.23,76,100,13.04,overcast clouds
255,Bambous Virieux,MU,-20.3428,57.7575,75.22,88,40,3.44,light rain
256,Sitka,US,57.0531,-135.33,42.69,75,40,8.05,scattered clouds
257,Wattegama,LK,6.7989,81.4808,85.12,71,100,5.68,overcast clouds
258,Aklavik,CA,68.2191,-135.0107,32.83,96,100,14.18,light snow
259,Longyearbyen,SJ,78.2186,15.6401,40.84,75,75,13.8,broken clouds
260,Omachi,JP,36.5,137.8667,82.42,44,42,3.13,scattered clouds
261,Sinazongwe,ZM,-17.2614,27.4618,79.32,53,94,2.8,overcast clouds
262,Souillac,MU,-20.5167,57.5167,75.36,88,40,3.44,light rain
263,Puerto Colombia,CO,10.9878,-74.9547,82.49,81,100,9.48,overcast clouds
264,Bemidji,US,47.4736,-94.8803,56.91,93,1,0.0,clear sky
265,Emerald,AU,-23.5333,148.1667,100.54,16,3,13.8,clear sky
266,Yamada,JP,39.4667,141.95,78.15,53,29,9.42,scattered clouds
267,Mucurapo,TT,10.6667,-61.5333,77.13,90,79,9.4,broken clouds
268,Villafranca De Los Barros,ES,38.5614,-6.3381,51.24,81,97,6.11,overcast clouds
269,Kutum,SD,14.2,24.6667,73.11,31,16,13.42,few clouds
270,La Ligua,CL,-32.4524,-71.2311,49.78,78,0,0.58,clear sky
271,Bedford,GB,52.1346,-0.4663,51.91,93,76,14.56,light rain
272,Raudeberg,NO,61.9875,5.1352,52.2,82,100,43.35,light rain
273,Wajima,JP,37.4,136.9,83.08,57,0,11.5,clear sky
274,Chokurdakh,RU,70.6333,147.9167,26.15,96,100,8.55,light snow
275,Kiunga,PG,-6.1219,141.2906,92.86,48,60,2.66,broken clouds
276,Calca,PE,-13.3333,-71.95,54.75,81,71,3.04,broken clouds
277,Kashan,IR,33.9831,51.4364,75.31,28,0,1.83,clear sky
278,Grindavik,IS,63.8424,-22.4338,41.47,81,40,23.02,scattered clouds
279,Tual,ID,-5.6667,132.75,81.52,63,23,6.22,few clouds
280,Naze,JP,28.3667,129.4833,85.12,69,3,17.13,clear sky
281,College,US,64.8569,-147.8028,33.75,95,90,0.0,light snow
282,Coolum Beach,AU,-26.5333,153.1,96.33,41,0,12.86,clear sky
283,Kumasi,GH,6.6885,-1.6244,70.66,100,94,2.55,overcast clouds
284,Acapulco,MX,16.8634,-99.8901,79.86,83,91,5.48,overcast clouds
285,Padang,ID,-0.9492,100.3543,86.05,73,100,4.43,overcast clouds
286,Kandry,RU,54.5667,54.1167,38.3,56,43,11.86,scattered clouds
287,Vao,NC,-22.6667,167.4833,71.74,89,0,13.89,clear sky
288,Puerto Leguizamo,CO,-0.1934,-74.7819,72.5,98,56,1.34,broken clouds
289,Chuy,UY,-33.6971,-53.4616,45.09,79,35,6.4,scattered clouds
290,Port Blair,IN,11.6667,92.75,85.1,69,44,9.53,scattered clouds
291,Bangui,CF,4.3612,18.555,73.58,88,40,0.0,light rain
292,Arrifes,PT,37.7667,-25.7,71.24,94,75,3.44,broken clouds
293,Vogar,IS,63.9832,-22.3874,41.56,81,40,23.02,scattered clouds
294,Roura,GF,4.7263,-52.3274,81.97,100,29,0.0,scattered clouds
295,Leningradskiy,RU,69.3833,178.4167,17.74,84,35,2.42,scattered clouds
296,Tottori,JP,35.5,134.2333,87.87,30,75,6.91,broken clouds
297,Placido De Castro,BR,-10.3353,-67.1856,75.02,84,27,2.28,scattered clouds
298,Jaca,ES,42.569,-0.5499,44.8,92,17,5.88,few clouds
299,Gabriel Leyva Solano,MX,25.6667,-108.6417,84.02,56,100,4.99,overcast clouds
300,Dingli,MT,35.8614,14.3822,68.81,78,20,3.44,few clouds
301,Masumbwe,TZ,-3.6333,32.1833,71.19,63,100,0.65,overcast clouds
302,Lucapa,AO,-8.4192,20.7447,67.24,90,84,2.75,light rain
303,Bereda,ES,43.2686,-7.5406,53.42,96,100,4.21,overcast clouds
304,Yanacancha,PE,-10.2411,-76.6456,41.09,92,52,1.72,broken clouds
305,Kruisfontein,ZA,-34.0033,24.7314,49.35,70,10,5.86,clear sky
306,Namibe,AO,-15.1961,12.1522,59.14,89,0,4.23,clear sky
307,Banda Aceh,ID,5.5577,95.3222,85.08,65,22,8.79,few clouds
308,Walvis Bay,NA,-22.9575,14.5053,53.1,87,0,10.36,clear sky
309,Sobrance,SK,48.7445,22.1814,53.37,81,0,2.24,clear sky
310,Lucea,JM,18.451,-78.1736,78.66,79,13,9.44,few clouds
311,Biloela,AU,-24.4167,150.5,97.93,17,12,16.33,few clouds
312,Sibolga,ID,1.7427,98.7792,86.29,61,89,5.66,overcast clouds
313,Labuhan,ID,-6.8844,112.2051,86.49,58,97,10.87,overcast clouds
314,Margate,GB,51.3813,1.3862,55.9,84,46,3.0,scattered clouds
315,Vila Velha,BR,-20.3297,-40.2925,78.75,78,75,10.36,broken clouds
316,Harboore,DK,56.6175,8.1807,54.21,85,86,20.45,overcast clouds
317,Deputatskiy,RU,69.3,139.9,20.91,79,47,6.87,scattered clouds
318,Kamarion,GR,36.8,25.8167,63.82,67,89,26.51,overcast clouds
319,Honningsvag,NO,70.9821,25.9704,51.33,87,75,23.02,broken clouds
320,Yuanping,CN,38.7153,112.7575,46.8,88,100,6.62,moderate rain
321,Shakawe,BW,-18.3667,21.85,64.63,18,41,6.24,scattered clouds
322,Iqaluit,CA,63.7506,-68.5145,28.13,80,1,3.44,clear sky
323,Christchurch,NZ,-43.5333,172.6333,53.94,89,75,1.99,broken clouds
324,Dikson,RU,73.5069,80.5464,35.47,98,100,17.83,light rain
325,Kimbe,PG,-5.5502,150.1429,87.66,61,98,3.8,overcast clouds
326,Kerman,IR,30.2832,57.0788,60.66,29,0,0.0,clear sky
327,Arlit,NE,18.7369,7.3853,83.16,17,0,7.05,clear sky
328,Akyab,MM,20.15,92.9,85.68,69,64,1.99,broken clouds
329,Staraya Mayna,RU,54.6,48.95,44.71,76,72,9.78,moderate rain
330,Mayor Pablo Lagerenza,PY,-19.9309,-60.7718,58.89,51,96,12.66,overcast clouds
331,Antofagasta,CL,-23.65,-70.4,56.48,72,41,7.0,scattered clouds
332,Rupert,US,42.6191,-113.6772,57.65,54,1,3.44,clear sky
333,Buenaventura,CO,3.8801,-77.0312,64.9,95,83,0.96,broken clouds
334,Domoni,KM,-12.2569,44.5319,77.18,77,60,6.8,broken clouds
335,Bend,US,44.0582,-121.3153,58.86,39,1,3.44,clear sky
336,Iisalmi,FI,63.5592,27.1907,46.42,86,69,13.0,broken clouds
337,Oksfjord,NO,70.2396,22.3479,54.52,83,100,20.4,overcast clouds
338,Opunake,NZ,-39.4556,173.8583,64.35,88,75,8.23,broken clouds
339,Ongandjera,NA,-17.8833,15.0667,61.45,33,4,5.59,clear sky
340,Nouakchott,MR,18.0858,-15.9785,76.93,83,57,11.18,broken clouds
341,Saldanha,ZA,-33.0117,17.9442,44.65,71,0,13.91,clear sky
342,Izumo,JP,35.3667,132.7667,87.69,29,0,11.5,clear sky
343,Meulaboh,ID,4.1363,96.1285,84.02,64,96,4.21,overcast clouds
344,Rohru,IN,31.2167,77.75,71.69,55,0,4.07,clear sky
345,Kantang,TH,7.4054,99.5156,89.69,70,20,3.44,few clouds
346,Cabedelo,BR,-6.9811,-34.8339,75.87,81,33,14.12,scattered clouds
347,Bagnan,IN,22.9242,88.14,89.49,64,35,6.76,scattered clouds
348,Tezu,IN,27.9167,96.1667,76.1,94,100,1.66,overcast clouds
349,Sioux Lookout,CA,50.1001,-91.917,52.18,100,1,2.3,clear sky
350,Bayonet Point,US,28.3267,-82.6834,78.75,86,86,1.01,overcast clouds
351,Tocopilla,CL,-22.092,-70.1979,60.1,73,14,6.4,few clouds
352,Poronaysk,RU,49.2167,143.1167,51.71,49,60,5.95,broken clouds
353,Abaza,RU,52.655,90.0928,45.37,37,96,2.06,overcast clouds
354,Mana,GF,5.6592,-53.7767,78.64,84,8,10.02,clear sky
355,Karlshamn,SE,56.1706,14.8619,59.49,94,100,8.34,overcast clouds
356,Montero,BO,-17.3333,-63.25,72.5,65,56,13.82,broken clouds
357,Hukuntsi,BW,-24.0,21.75,51.15,26,0,9.01,clear sky
358,Rosetown,CA,51.5501,-108.0014,55.98,35,10,3.44,light rain
359,Hilo,US,19.7297,-155.09,78.53,83,90,8.05,light rain
360,Tuy Hoa,VN,13.0833,109.3,85.33,70,77,11.79,heavy intensity rain
361,Palmer,US,42.1584,-72.3287,63.43,85,90,3.44,mist
362,Sibu,MY,2.3,111.8167,88.11,66,40,5.01,scattered clouds
363,Granja,BR,-3.1203,-40.8261,77.9,81,14,7.85,few clouds
364,Nemuro,JP,43.3236,145.575,72.03,85,100,15.41,moderate rain
365,Saint-Pierre,RE,-21.3393,55.4781,76.68,70,0,5.75,clear sky
366,Stuttgart,DE,48.7823,9.177,57.04,93,75,2.3,light rain
367,Ulladulla,AU,-35.35,150.4667,78.87,36,1,13.71,clear sky
368,Olafsvik,IS,64.8945,-23.7142,40.91,75,100,29.64,overcast clouds
369,Grong,NO,64.4654,12.3149,54.68,68,97,8.25,overcast clouds
370,San Lazaro,BZ,18.0387,-88.6622,73.67,92,31,1.88,scattered clouds
371,Suez,EG,29.9737,32.5263,68.52,79,0,8.57,clear sky
372,Vila Do Maio,CV,15.1333,-23.2167,81.39,82,12,6.17,few clouds
373,Petropavlovsk-Kamchatskiy,RU,53.0452,158.6483,54.19,44,75,13.42,broken clouds
374,Birjand,IR,32.8663,59.2211,55.87,24,0,6.91,clear sky
375,Torbay,CA,47.6666,-52.7314,52.57,92,90,8.05,overcast clouds
376,Severobaykalsk,RU,55.65,109.3167,39.94,50,100,1.39,overcast clouds
377,Yinchuan,CN,38.4681,106.2731,60.28,23,100,9.44,overcast clouds
378,Lewistown,US,40.5992,-77.5714,67.8,100,75,0.0,mist
379,Tres Lagoas,BR,-20.7511,-51.6783,76.37,68,56,2.84,broken clouds
380,Muros,ES,42.7762,-9.0603,58.84,94,95,10.47,overcast clouds
381,Birganj,NP,27.0104,84.8774,84.11,73,5,1.83,clear sky
382,Storforshei,NO,66.4043,14.5233,60.58,67,75,16.11,broken clouds
383,Sao Joao Da Barra,BR,-21.6403,-41.0511,73.08,93,99,11.97,light rain
384,Matagami,CA,49.7502,-77.6328,35.71,100,1,4.61,clear sky
385,Sorong,ID,-0.8833,131.25,86.95,60,85,13.76,overcast clouds
386,Ust-Kut,RU,56.7938,105.7672,41.5,74,99,2.64,overcast clouds
387,Sironj,IN,24.1,77.7,85.12,62,0,2.64,clear sky
388,Zhanaozen,KZ,43.3,52.8,53.71,39,96,24.65,overcast clouds
389,Paciran,ID,-6.8767,112.3761,85.24,63,100,11.41,overcast clouds
390,Pemba,MZ,-12.974,40.5178,74.1,88,20,4.61,few clouds
391,Zhoucheng,CN,35.9122,116.3117,73.8,87,100,9.84,overcast clouds
392,Caucaia,BR,-3.7361,-38.6531,83.07,72,40,25.32,scattered clouds
393,Thinadhoo,MV,0.5333,72.9333,83.86,74,34,15.21,scattered clouds
394,Kuito,AO,-12.3833,16.9333,57.99,47,37,5.35,scattered clouds
395,Okhotsk,RU,59.3833,143.3,44.17,55,90,22.21,overcast clouds
396,Tevriz,RU,57.509,72.4042,32.7,79,83,9.6,broken clouds
397,Evensk,RU,61.95,159.2333,42.49,53,100,17.6,overcast clouds
398,A Coruna,ES,43.3713,-8.396,58.78,85,20,6.91,few clouds
399,Kieta,PG,-6.2167,155.6333,83.05,82,95,4.99,moderate rain
400,Semirom,IR,31.4167,51.5667,64.4,26,0,2.28,clear sky
401,Husavik,IS,66.0449,-17.3389,39.11,93,100,21.05,overcast clouds
402,Seydisehir,TR,37.4193,31.8453,51.12,57,0,3.2,clear sky
403,Dvinskoy,RU,62.1535,45.1175,43.54,81,100,2.98,overcast clouds
404,Ciudad Bolivar,VE,8.1222,-63.5497,76.1,85,72,8.66,broken clouds
405,Bandarbeyla,SO,9.4942,50.8122,83.05,68,44,22.24,scattered clouds
406,Kawalu,ID,-7.3817,108.2082,81.54,65,99,5.17,overcast clouds
407,Kalmunai,LK,7.4167,81.8167,79.56,83,100,8.55,heavy intensity rain
408,The Valley,AI,18.217,-63.0578,84.06,72,14,22.79,few clouds
409,Tepetzintla,MX,21.1667,-97.8333,71.38,91,84,3.42,broken clouds
410,Kahului,US,20.8947,-156.47,77.02,85,75,17.27,broken clouds
411,Srandakan,ID,-7.9386,110.2506,81.84,64,62,9.91,broken clouds
412,Rio Verde De Mato Grosso,BR,-18.9181,-54.8442,81.45,54,55,5.08,broken clouds
413,Omsukchan,RU,62.5333,155.8,23.05,89,100,12.68,light snow
414,Tupik,RU,54.4253,119.9327,44.53,44,13,2.93,few clouds
415,Broome,US,42.2506,-75.833,65.55,80,90,1.99,overcast clouds
416,Kontagora,NG,10.3999,5.4695,72.43,91,69,2.59,broken clouds
417,Alghero,IT,40.5589,8.3181,66.29,82,38,5.75,scattered clouds
418,Bourail,NC,-21.5667,165.4833,78.49,65,40,12.5,scattered clouds
419,Aswan,EG,24.0934,32.907,70.9,49,0,9.22,clear sky
420,Mathathane,BW,-22.2687,28.7495,63.77,73,99,14.0,overcast clouds
421,Touros,BR,-5.1989,-35.4608,74.3,83,19,12.48,few clouds
422,Saint Anthony,US,45.0205,-93.218,58.71,90,1,0.0,mist
423,Kamaishi,JP,39.2667,141.8833,83.35,58,32,10.0,scattered clouds
424,Coquimbo,CL,-29.9533,-71.3436,51.53,93,0,3.44,clear sky
425,West Richland,US,46.3043,-119.3614,66.29,58,1,0.0,clear sky
426,Maldonado,UY,-34.6667,-54.9167,55.22,77,43,3.51,scattered clouds
427,Namatanai,PG,-3.6667,152.4333,85.46,67,99,6.11,light rain
428,Dakar,SN,14.6937,-17.4441,79.68,81,83,8.77,broken clouds
429,Yerbogachen,RU,61.2767,108.0108,41.25,60,96,8.99,overcast clouds
430,Powell River,CA,49.8496,-124.5361,53.6,76,97,2.28,overcast clouds
431,Iranshahr,IR,27.2025,60.6848,84.54,20,0,4.61,clear sky
432,Saint George,US,37.1041,-113.5841,77.47,29,1,4.0,clear sky
433,Maracacume,BR,-2.0428,-45.9592,71.76,96,2,3.62,clear sky
434,Yanam,IN,16.7333,82.2167,90.0,57,20,3.13,few clouds
435,Vila Franca Do Campo,PT,37.7167,-25.4333,73.2,91,93,5.79,overcast clouds
436,Itoman,JP,26.1247,127.6694,88.57,67,40,18.41,scattered clouds
437,Guane,CU,22.2025,-84.0875,74.95,89,44,6.38,scattered clouds
438,Roma,US,43.2128,-75.4557,64.89,95,90,8.05,moderate rain
439,Kavieng,PG,-2.5744,150.7967,84.06,69,100,7.74,overcast clouds
440,Muli,MV,2.9167,73.5667,84.07,74,7,15.52,clear sky
441,Vohibinany,MG,-17.35,49.0333,68.95,94,94,1.12,light rain
442,Bambanglipuro,ID,-7.95,110.2833,82.02,63,63,10.18,broken clouds
443,Ouro Preto Do Oeste,BR,-10.7481,-62.2158,76.26,77,39,2.37,scattered clouds
444,Mitsamiouli,KM,-11.3847,43.2844,79.09,69,40,6.91,scattered clouds
445,Vostok,RU,46.4856,135.8833,40.82,94,100,4.52,overcast clouds
446,Greeley,US,40.4233,-104.7091,63.64,40,1,0.0,clear sky
447,Lorengau,PG,-2.0226,147.2712,86.09,61,58,7.47,broken clouds
448,Manchester,GB,53.4809,-2.2374,49.95,92,37,5.75,scattered clouds
449,Charters Towers,AU,-20.1,146.2667,100.24,11,1,1.74,clear sky
450,Lobito,AO,-12.3481,13.5456,69.93,84,38,1.25,scattered clouds
451,Esperance,AU,-33.8667,121.9,67.84,42,0,8.28,clear sky
452,Boueni,YT,-12.9025,45.0761,82.38,73,67,5.5,broken clouds
453,Kosonsoy,UZ,41.2561,71.5508,52.36,39,1,5.86,clear sky
454,Sangar,RU,63.9242,127.4739,39.9,53,67,11.45,broken clouds
455,Maniitsoq,GL,65.4167,-52.9,37.6,66,21,6.31,few clouds
456,Brezno,SK,48.8043,19.6363,52.52,76,5,3.76,clear sky
457,Muborak,UZ,39.2553,65.1528,62.51,20,0,12.17,clear sky
458,Parker,US,32.7668,-97.8003,70.79,62,38,4.74,scattered clouds
459,Jackson,US,42.4165,-122.8345,69.67,62,1,0.0,clear sky
460,Takaka,NZ,-40.85,172.8,61.97,94,100,5.08,overcast clouds
461,Martapura,ID,-3.4167,114.85,80.69,78,40,5.75,moderate rain
462,Gizo,SB,-8.103,156.8419,83.8,74,67,10.45,broken clouds
463,Hervey Bay,AU,-25.2986,152.8535,82.04,86,3,23.78,clear sky
464,Moyale,KE,3.5167,39.0584,68.99,72,67,9.33,broken clouds
465,Syamzha,RU,60.0158,41.0614,41.59,90,79,2.82,broken clouds
466,Riyadh,SA,24.6877,46.7219,82.45,15,0,0.0,clear sky
467,Phetchaburi,TH,12.9667,99.5833,86.11,63,87,4.14,overcast clouds
468,Bhanpuri,IN,21.1,80.9167,86.31,67,13,3.83,few clouds
469,Terryville,US,40.909,-73.0651,70.47,89,90,5.99,overcast clouds
470,San Luis,AR,-33.295,-66.3356,49.77,30,0,7.18,clear sky
471,Karpogory,RU,64.0019,44.4451,40.96,91,87,5.17,overcast clouds
472,Lyuban,BY,52.7985,28.0048,42.85,74,86,9.42,overcast clouds
473,Olinda,BR,-8.0089,-34.8553,78.53,73,40,8.05,scattered clouds
474,Coihaique,CL,-45.5752,-72.0662,42.75,81,100,5.75,light rain
475,Tahoua,NE,14.8888,5.2692,83.23,42,0,6.11,clear sky
476,Oeiras Do Para,BR,-2.0031,-49.8544,74.23,90,56,3.62,broken clouds
477,Arcachon,FR,44.5875,-1.0519,53.65,94,40,6.91,scattered clouds
478,Maceio,BR,-9.6658,-35.7353,74.64,94,0,2.3,clear sky
479,Myitkyina,MM,25.3833,97.4,81.0,83,100,1.43,overcast clouds
480,Mount Pleasant,US,32.7941,-79.8626,73.0,96,1,0.0,clear sky
481,Lasa,IT,46.6166,10.7002,58.08,98,100,6.04,overcast clouds
482,Ust-Tsilma,RU,65.441,52.1498,41.49,89,100,6.2,overcast clouds
483,Atambua,ID,-9.1061,124.8925,85.68,51,4,6.2,clear sky
484,Sabancuy,MX,18.9667,-91.1833,80.02,83,36,10.67,scattered clouds
485,Summerland,CA,49.5998,-119.6691,58.59,49,40,8.05,scattered clouds
486,Laje,BR,-10.1833,-40.9667,69.13,64,0,6.17,clear sky
487,Zhanakorgan,KZ,43.9098,67.2495,58.35,32,4,6.35,clear sky
488,Tura,IN,25.5198,90.2201,80.62,85,24,3.96,few clouds
489,Kez,RU,57.8979,53.7152,37.63,62,61,3.31,broken clouds
490,Garden City,US,42.3256,-83.331,67.26,97,90,5.75,thunderstorm
491,Ibra,OM,22.6906,58.5334,80.38,65,100,3.53,overcast clouds
492,Conceicao Do Araguaia,BR,-8.2578,-49.2647,76.55,71,68,4.16,broken clouds
493,Kununurra,AU,-15.7667,128.7333,102.18,12,7,5.75,clear sky
494,Voh,NC,-20.9667,164.7,80.1,65,34,10.36,scattered clouds
495,Portland,US,45.5234,-122.6762,60.78,86,20,1.01,few clouds
496,Ayan,RU,56.45,138.1667,44.35,44,20,18.12,few clouds
497,Hobyo,SO,5.3505,48.5268,81.46,75,84,14.45,broken clouds
498,Zyryanka,RU,65.75,150.85,32.23,58,93,13.42,overcast clouds
499,Gravdal,NO,68.1214,13.5031,60.69,63,75,25.32,moderate rain
500,Amapa,BR,1.0,-52.0,69.85,92,38,1.5,scattered clouds
501,Galesong,ID,-5.3166,119.3661,87.82,63,35,13.85,scattered clouds
502,Yar-Sale,RU,66.8333,70.8333,34.3,69,100,14.25,overcast clouds
503,Byron Bay,AU,-28.65,153.6167,93.31,43,5,12.59,clear sky
504,Tamiahua,MX,21.2667,-97.45,75.38,88,69,3.18,broken clouds
505,Igarka,RU,67.4667,86.5833,26.56,82,95,4.59,overcast clouds
506,Chenghai,CN,23.4632,116.768,89.51,48,20,6.71,few clouds
507,Abha,SA,18.2164,42.5053,62.42,55,0,0.0,clear sky
508,Gasa,PS,31.5,34.4667,71.58,63,10,4.25,clear sky
509,Jamshedpur,IN,22.8,86.1833,82.22,78,75,2.3,haze
510,Lavrentiya,RU,65.5833,-171.0,28.15,78,34,4.99,scattered clouds
511,San Carlos De Bariloche,AR,-41.1456,-71.3082,38.95,65,40,21.85,scattered clouds
512,Kotel,BG,42.8833,26.45,42.35,90,1,0.36,clear sky
513,Marabba,SD,12.35,32.1833,77.65,72,99,14.52,overcast clouds
514,George,ZA,-33.963,22.4617,45.95,93,20,8.05,few clouds
515,Yazoo City,US,32.8551,-90.4056,74.1,86,81,0.58,broken clouds
516,Himeji,JP,34.8167,134.7,85.95,62,22,5.97,few clouds
517,Brae,GB,60.3964,-1.353,51.71,82,94,25.08,overcast clouds
518,Dongsheng,CN,39.8161,109.9776,48.83,42,100,16.89,heavy intensity rain
519,De Aar,ZA,-30.6497,24.0123,42.1,62,0,11.7,clear sky
520,Miramar,US,25.9873,-80.2323,81.01,74,1,4.61,clear sky
521,Kyaikkami,MM,16.08,97.5675,83.19,75,64,2.95,broken clouds
522,Canyon,US,34.9803,-101.9188,63.52,62,21,9.15,few clouds
523,Santa Maria,BR,-29.6842,-53.8069,55.15,74,98,5.21,overcast clouds
524,Havelock,US,34.8791,-76.9013,75.94,78,80,6.38,broken clouds
525,Kirakira,SB,-10.4544,161.9205,82.56,79,87,4.47,overcast clouds
526,Standish,US,43.9831,-83.9589,66.31,98,100,8.9,moderate rain
527,Valparaiso,CL,-33.0393,-71.6273,51.44,71,0,0.0,clear sky
528,Pontes E Lacerda,BR,-15.2261,-59.3353,77.68,64,63,1.57,broken clouds
529,Destin,US,30.3935,-86.4958,78.76,84,40,0.0,scattered clouds
530,Zhigansk,RU,66.7697,123.3711,32.29,68,98,5.03,overcast clouds
531,Nyurba,RU,63.2842,118.3319,41.61,55,45,7.65,scattered clouds
532,Lagoa,PT,39.05,-27.9833,70.48,91,12,8.84,few clouds
533,Honiara,SB,-9.4333,159.95,82.69,82,80,3.33,heavy intensity rain
534,Gisborne,NZ,-38.6533,178.0042,66.94,88,100,8.1,light rain
535,San Borja,BO,-14.8167,-66.85,79.2,61,46,2.04,scattered clouds
536,Craig,US,40.5153,-107.5464,53.55,65,1,0.0,clear sky
537,Nelson Bay,AU,-32.7167,152.15,83.28,43,0,19.66,clear sky
538,Zemio,CF,5.0314,25.1361,68.92,90,81,1.23,broken clouds
539,Mocuba,MZ,-16.8392,36.9856,81.99,45,0,3.87,clear sky
540,Kushmurun,KZ,52.4503,64.6311,36.52,65,43,16.55,scattered clouds
541,Trairi,BR,-3.2778,-39.2689,78.75,77,15,13.82,few clouds
542,Bella Union,UY,-30.2752,-57.6007,46.98,69,49,7.67,scattered clouds
543,Roswell,US,34.0232,-84.3616,69.58,95,90,0.0,overcast clouds
544,Gambela,ET,8.25,34.5833,72.79,93,74,2.95,broken clouds
545,Ascension,US,30.2169,-90.9001,77.0,97,40,0.0,scattered clouds
546,Punto Fijo,VE,11.6956,-70.1996,82.11,78,40,24.67,scattered clouds
547,Benghazi,LY,32.1167,20.0667,70.48,64,0,5.86,clear sky
548,Aberdeen,GB,57.1437,-2.0981,49.21,93,63,4.61,broken clouds
549,Zambezi,ZM,-13.5432,23.1047,65.97,79,23,3.51,few clouds
550,Solin,HR,43.55,16.5,65.05,72,0,0.0,clear sky
551,Bilibino,RU,68.0546,166.4372,18.39,95,95,5.3,overcast clouds
552,Requena,ES,39.4883,-1.1004,52.72,76,2,6.6,clear sky
553,Axim,GH,4.8699,-2.2405,76.37,90,59,3.18,broken clouds
554,San Quintin,MX,30.4833,-115.95,72.64,65,100,5.19,overcast clouds
555,Anloga,GH,5.7947,0.8973,80.82,87,8,7.0,clear sky
556,Fairbanks,US,64.8378,-147.7164,34.61,94,90,5.75,light snow
557,Dunedin,NZ,-45.8742,170.5036,48.79,97,100,20.0,overcast clouds
558,Sapouy,BF,11.5544,-1.7736,73.15,80,47,4.94,scattered clouds
559,Jacareacanga,BR,-6.2222,-57.7528,74.59,77,52,1.14,broken clouds
560,Srednekolymsk,RU,67.45,153.6833,28.33,76,99,9.26,overcast clouds
561,Verkhnevilyuysk,RU,63.4453,120.3167,41.41,54,61,6.93,broken clouds
562,Lavumisa,SZ,-27.31,31.892,60.12,80,100,3.0,overcast clouds
563,Formosa Do Rio Preto,BR,-11.0483,-45.1931,73.69,42,31,2.86,scattered clouds
564,Xining,CN,36.6167,101.7667,44.37,80,100,4.99,light rain
565,Sabang,ID,5.8933,95.3214,81.91,72,20,12.03,few clouds
566,Kakching,IN,24.4833,93.9833,78.58,63,96,2.71,overcast clouds
567,Waipawa,NZ,-41.4122,175.5153,53.46,96,100,4.79,light rain
568,Gogrial,SS,8.5332,28.1004,73.49,87,88,2.37,overcast clouds
569,Morondava,MG,-20.2833,44.2833,79.54,68,1,2.73,clear sky
570,Bama,NG,11.5221,13.6856,75.97,52,86,3.0,overcast clouds
571,Plettenberg Bay,ZA,-34.0527,23.3716,51.48,76,17,6.11,few clouds
572,Kysyl-Syr,RU,63.8986,122.7617,40.32,51,84,5.86,broken clouds
573,Beloha,MG,-25.1667,45.05,74.12,67,61,6.11,broken clouds
574,Fort Nelson,CA,58.8053,-122.7002,38.79,41,1,6.91,clear sky
575,Pundaguitan,PH,6.3711,126.1689,82.56,79,100,20.45,overcast clouds
576,Tautira,PF,-17.7333,-149.15,77.02,75,23,7.61,few clouds
577,Te Anau,NZ,-45.4167,167.7167,54.21,78,82,2.8,broken clouds
578,Novyy Urengoy,RU,66.0833,76.6333,33.58,72,100,10.27,overcast clouds
579,Ola,RU,59.5833,151.2833,39.7,54,100,17.05,overcast clouds
580,Geraldton,AU,-28.7667,114.6,70.21,46,0,13.8,clear sky
581,Kalevala,RU,65.2,31.1667,45.09,85,92,12.21,overcast clouds
582,Gerardmer,FR,48.0735,6.8779,48.04,98,100,2.53,moderate rain
583,Merke,KZ,42.8728,73.1786,53.44,44,58,6.35,broken clouds
584,Ranong,TH,9.9658,98.6348,89.53,67,93,9.01,overcast clouds
585,Leshukonskoye,RU,64.8989,45.7622,43.39,90,95,6.38,overcast clouds
586,Sao Gabriel,BR,-30.3364,-54.32,50.86,72,89,9.91,overcast clouds
587,Madrid,ES,40.4165,-3.7026,54.21,77,0,3.44,clear sky
588,Key West,US,24.5557,-81.7826,84.2,72,1,6.91,clear sky
589,Karlskoga,SE,59.3267,14.5239,52.92,95,100,5.46,overcast clouds
590,Inirida,CO,3.8653,-67.9239,76.71,90,100,2.91,overcast clouds
591,West Wendover,US,40.7391,-114.0733,52.81,28,1,0.0,clear sky
592,Port Hardy,CA,50.6996,-127.4199,50.0,100,40,3.44,scattered clouds
593,Fort Frances,CA,48.5999,-93.4003,47.05,56,1,0.0,clear sky
594,Gannan,CN,47.9147,123.5031,54.95,48,4,6.98,clear sky
595,Kigoma,TZ,-4.8769,29.6267,72.19,83,0,0.0,clear sky
596,Moyobamba,PE,-6.05,-76.9667,64.99,99,66,1.12,broken clouds
597,Weligama,LK,5.9667,80.4167,83.89,72,98,10.09,overcast clouds
598,Marsh Harbour,BS,26.5412,-77.0636,80.24,70,22,11.61,few clouds
599,Kyren,RU,51.6828,102.1408,42.37,57,19,1.16,few clouds
600,Nongan,CN,44.382,125.1685,56.59,45,94,10.51,overcast clouds
601,Makat,KZ,47.6469,53.3463,54.18,50,87,10.51,overcast clouds
602,Dudinka,RU,69.4058,86.1778,29.61,94,100,9.51,overcast clouds
603,Wewak,PG,-3.5534,143.6268,84.06,75,100,5.91,overcast clouds
604,Lowestoft,GB,52.4752,1.7516,53.02,91,49,16.11,scattered clouds
605,Alofi,NU,-19.0595,-169.9187,76.89,83,90,14.97,light rain
606,Senekal,ZA,-28.3197,27.6208,49.01,73,0,14.38,clear sky
607,Kelo,TD,9.3086,15.8066,72.3,92,26,5.06,scattered clouds
608,Half Moon Bay,US,37.4636,-122.4286,75.02,58,1,0.0,clear sky
609,Murgab,TM,37.4966,61.9714,53.47,50,0,6.91,clear sky
610,Pascagoula,US,30.3658,-88.5561,77.04,96,90,0.0,overcast clouds
611,Arrah,IN,25.5667,84.6667,82.29,67,1,2.08,clear sky
612,Fredericksburg,US,38.3032,-77.4605,75.15,80,90,1.99,overcast clouds
613,Bjornevatn,NO,69.6672,29.9847,48.54,71,0,20.71,clear sky
614,Salina,US,38.8403,-97.6114,55.53,88,1,0.0,clear sky
615,Narasannapeta,IN,18.4167,84.05,86.41,69,58,3.83,broken clouds
616,Manuk Mangkaw,PH,4.8,119.85,82.04,69,100,3.09,overcast clouds
617,Odweyne,SO,9.4092,45.064,75.42,63,96,12.88,overcast clouds
618,Pacific Grove,US,36.6177,-121.9166,74.16,70,1,3.0,clear sky
619,Luzhou,CN,28.8724,105.4405,91.24,49,33,1.74,scattered clouds
620,Terney,RU,45.0503,136.6092,61.7,58,60,11.48,broken clouds
621,Bay Saint Louis,US,30.3088,-89.33,78.89,93,40,6.42,scattered clouds
622,Mackay,AU,-21.15,149.2,93.69,66,2,17.27,clear sky
623,Nishihara,JP,26.1842,127.7558,87.85,64,40,19.57,scattered clouds
624,Isangel,VU,-19.55,169.2667,84.31,79,75,4.61,broken clouds
625,Awbari,LY,26.5921,12.7805,72.27,38,2,7.56,clear sky
626,Clyde River,CA,70.4692,-68.5914,34.93,85,99,4.5,overcast clouds
627,Listvyanskiy,RU,54.4399,83.4984,33.19,97,100,6.71,overcast clouds
628,Oyama,JP,36.3,139.8,86.59,43,7,6.35,clear sky
629,Snasa,NO,64.2457,12.3778,54.81,61,91,11.81,overcast clouds
630,Halifax,CA,44.6453,-63.5724,51.01,90,93,5.75,overcast clouds
631,Roebourne,AU,-20.7833,117.1333,83.79,32,0,13.91,clear sky
632,Buala,SB,-8.145,159.5921,83.23,75,81,3.58,light rain
633,Karratha,AU,-20.7377,116.8463,82.76,33,0,13.82,clear sky
634,Borger,NL,52.9233,6.7931,51.96,91,100,12.62,overcast clouds
635,Wilmington,US,34.2257,-77.9447,76.91,87,1,3.44,clear sky
636,Orange Cove,US,36.6244,-119.3137,73.06,48,90,4.61,haze
637,Reyes,BO,-14.3167,-67.3833,77.85,64,46,2.66,scattered clouds
638,Yumen,CN,40.2833,97.2,55.22,29,82,13.51,broken clouds
639,Moranbah,AU,-22.0016,148.0466,99.23,15,0,13.04,clear sky
640,Linxia,CN,35.6003,103.2064,41.13,95,100,1.36,overcast clouds
641,Sadiqabad,PK,28.3062,70.1307,93.67,42,1,11.61,clear sky
642,Onega,RU,63.9061,38.1404,41.68,91,9,8.39,clear sky
643,Tanushimaru,JP,33.35,130.6833,92.1,28,41,2.51,scattered clouds
644,Shaunavon,CA,49.6501,-108.4181,49.78,28,1,3.62,clear sky
645,Gwanda,ZW,-20.9333,29.0,60.8,87,99,12.15,overcast clouds
646,Cidreira,BR,-30.1811,-50.2056,60.76,78,99,11.77,overcast clouds
647,Bestobe,KZ,52.4994,73.0975,32.7,95,100,18.92,light snow
648,Pampa,US,35.5362,-100.9599,68.95,67,1,8.05,clear sky
649,Baykit,RU,61.67,96.37,39.15,76,93,3.44,overcast clouds
650,Gamba,GA,-2.65,10.0,75.22,86,100,4.99,overcast clouds
651,Palora,EC,-1.7,-77.9333,63.73,97,61,3.56,broken clouds
652,Kayerkan,RU,69.3497,87.7602,26.71,92,100,8.79,overcast clouds
653,Praya,CV,14.9215,-23.5087,81.14,83,40,5.75,scattered clouds
654,Malakal,SS,9.5334,31.6605,73.24,90,99,3.8,overcast clouds
655,Antalaha,MG,-14.9003,50.2788,73.87,84,67,7.47,light rain
656,Port Keats,AU,-14.25,129.55,90.91,41,27,11.3,scattered clouds
657,Araguacu,BR,-12.9306,-49.8264,80.83,52,100,2.91,overcast clouds
658,Rivadavia,AR,-33.1905,-68.4608,46.87,22,0,4.29,clear sky
659,Livadiya,RU,42.8692,132.6764,62.2,74,100,11.9,overcast clouds
660,Morong,PH,14.5115,121.2393,88.92,73,100,12.97,light rain
661,Carutapera,BR,-1.195,-46.02,78.46,79,10,8.48,clear sky
662,Mascote,BR,-15.5631,-39.3025,68.09,99,20,2.39,few clouds
663,Hami,CN,42.8,93.45,57.47,21,1,3.6,clear sky
664,Genhe,CN,50.7833,121.5167,49.1,36,62,5.59,broken clouds
665,Petrokamenskoye,RU,57.716,60.6484,32.05,67,10,6.46,clear sky
666,Lima,PE,-12.0432,-77.0282,58.39,77,90,11.5,overcast clouds
667,Kudahuvadhoo,MV,2.6708,72.8944,84.02,74,36,15.68,scattered clouds
668,Kulhudhuffushi,MV,6.6221,73.07,81.93,80,100,16.78,overcast clouds
669,Yilan,TW,24.757,121.753,92.48,62,56,11.39,broken clouds
670,Oriximina,BR,-1.7656,-55.8661,75.24,89,77,4.38,broken clouds
671,Albury,AU,-36.0833,146.9167,57.15,94,75,10.36,broken clouds
672,Mastic Beach,US,40.7668,-72.8521,70.05,90,90,1.99,overcast clouds
673,Nantucket,US,41.2835,-70.0995,66.09,93,100,10.22,light rain
674,Doha,QA,25.2867,51.5333,91.38,66,0,11.5,clear sky
675,Hellvik,NO,59.9156,5.781,56.77,80,75,17.0,broken clouds
676,Awallan,PH,17.9244,121.913,84.24,76,100,4.52,moderate rain
677,Kristianstad,SE,56.0313,14.1524,55.54,95,40,4.61,scattered clouds
678,Plouzane,FR,48.3833,-4.6167,55.58,85,40,10.36,scattered clouds
679,Presidencia Roque Saenz Pena,AR,-26.7852,-60.4388,59.16,37,100,6.96,overcast clouds
680,Marystown,CA,47.1666,-55.1483,47.86,100,47,8.99,scattered clouds
681,Ugoofaaru,MV,5.6667,73.0,82.63,78,63,16.69,broken clouds
682,Vestmannaeyjar,IS,63.4427,-20.2734,45.3,75,69,22.59,broken clouds
683,Phayao,TH,19.25,100.25,77.85,61,24,2.46,few clouds
684,Chelmza,PL,53.1846,18.6047,51.58,96,98,6.55,overcast clouds
685,Moyo,UG,3.6609,31.7247,66.54,92,10,1.34,light rain
686,Itaporanga,BR,-7.3044,-38.1503,74.16,71,0,5.23,clear sky
687,Pafos,CY,34.7667,32.4167,67.78,52,0,9.22,clear sky
688,Najran,SA,17.4924,44.1277,79.45,37,40,1.36,scattered clouds
689,Marsa Matruh,EG,31.3525,27.2453,68.2,60,40,5.75,scattered clouds
690,Cruzeiro,BR,-22.5761,-44.9628,70.57,98,85,4.32,light rain
691,Kuytun,RU,54.3419,101.5036,42.96,60,95,3.42,overcast clouds
692,Bam,IR,29.106,58.357,80.46,16,27,12.08,scattered clouds
693,Oksbol,DK,55.6268,8.2876,57.81,88,100,22.32,overcast clouds
694,Gardez,AF,33.5974,69.2259,63.39,22,0,2.24,clear sky
695,Villa Carlos Paz,AR,-31.4241,-64.4978,48.4,67,0,5.01,clear sky
696,Puerto Montt,CL,-41.4698,-72.9447,40.03,100,90,0.0,overcast clouds
697,Kerema,PG,-7.9631,145.7785,83.19,73,81,8.88,broken clouds
698,Rudbar,AF,30.15,62.6,66.49,18,0,14.05,clear sky
699,Mount Isa,AU,-20.7333,139.5,92.97,12,7,14.97,clear sky
700,Punta Alta,AR,-38.8759,-62.0736,47.26,54,2,9.6,clear sky
